[
  {
    "id": "1",
    "name": "Central Parking",
    "category": "Park",
    "likes": 12,
    "dislikes": 1,
    "address": {
      "street": "59th St to 110th St",
      "city": "New York",
      "postalCode": "10022",
      "country": "USA",
      "location": {
        "latitude": 40.785091,
        "longitude": -73.968285
      }
    },
    "comments": []
  },
  {
    "id": "2",
    "name": "Louvre Museum",
    "category": "Museum",
    "likes": 48,
    "dislikes": 3,
    "address": {
      "street": "Rue de Rivoli",
      "city": "Paris",
      "postalCode": "75001",
      "country": "France",
      "location": {
        "latitude": 48.860611,
        "longitude": 2.337644
      }
    },
    "comments": []
  },
  {
    "id": "3",
    "name": "Eataly",
    "category": "Restaurant",
    "likes": 25,
    "dislikes": 2,
    "address": {
      "street": "800 Boylston St",
      "city": "Boston",
      "postalCode": "02199",
      "country": "USA",
      "location": {
        "latitude": 42.3482,
        "longitude": -71.0827
      }
    },
    "comments": []
  },
  {
    "id": "4",
    "name": "Googleplex",
    "category": "Landmark",
    "likes": 40,
    "dislikes": 4,
    "address": {
      "street": "1600 Amphitheatre Parkway",
      "city": "Mountain View",
      "postalCode": "94043",
      "country": "USA",
      "location": {
        "latitude": 37.4220,
        "longitude": -122.0841
      }
    },
    "comments": []
  },
  {
    "id": "5",
    "name": "Tokyo Tower",
    "category": "Attraction",
    "likes": 39,
    "dislikes": 5,
    "address": {
      "street": "4 Chome-2-8 Shibakoen",
      "city": "Minato City",
      "postalCode": "105-0011",
      "country": "Japan",
      "location": {
        "latitude": 35.6586,
        "longitude": 139.7454
      }
    },
    "comments": []
  },
  {
    "id": "6",
    "name": "Brandenburg Gate",
    "category": "Landmark",
    "likes": 45,
    "dislikes": 1,
    "address": {
      "street": "Pariser Platz",
      "city": "Berlin",
      "postalCode": "10117",
      "country": "Germany",
      "location": {
        "latitude": 52.5163,
        "longitude": 13.3777
      }
    },
    "comments": []
  },
  {
    "id": "7",
    "name": "The Shard",
    "category": "Skyscraper",
    "likes": 30,
    "dislikes": 3,
    "address": {
      "street": "32 London Bridge St",
      "city": "London",
      "postalCode": "SE1 9SG",
      "country": "UK",
      "location": {
        "latitude": 51.5045,
        "longitude": -0.0865
      }
    },
    "comments": []
  },
  {
    "id": "8",
    "name": "Opera House",
    "category": "Theatre",
    "likes": 38,
    "dislikes": 2,
    "address": {
      "street": "Bennelong Point",
      "city": "Sydney",
      "postalCode": "NSW 2000",
      "country": "Australia",
      "location": {
        "latitude": -33.8568,
        "longitude": 151.2153
      }
    },
    "comments": []
  },
  {
    "id": "9",
    "name": "CN Tower",
    "category": "Attraction",
    "likes": 22,
    "dislikes": 1,
    "address": {
      "street": "290 Bremner Blvd",
      "city": "Toronto",
      "postalCode": "M5V 3L9",
      "country": "Canada",
      "location": {
        "latitude": 43.6426,
        "longitude": -79.3871
      }
    },
    "comments": []
  },
  {
    "id": "10",
    "name": "Blue Lagoon",
    "category": "Spa",
    "likes": 33,
    "dislikes": 4,
    "address": {
      "street": "Norðurljósavegur 9",
      "city": "Grindavík",
      "postalCode": "240",
      "country": "Iceland",
      "location": {
        "latitude": 63.8804,
        "longitude": -22.4495
      }
    },
    "comments": []
  },
  {
    "id": "11",
    "name": "Café Central",
    "category": "Cafe",
    "likes": 18,
    "dislikes": 1,
    "address": {
      "street": "Herrengasse 14",
      "city": "Vienna",
      "postalCode": "1010",
      "country": "Austria",
      "location": {
        "latitude": 48.2100,
        "longitude": 16.3647
      }
    },
    "comments": []
  },
  {
    "id": "12",
    "name": "Borough Market",
    "category": "Market",
    "likes": 26,
    "dislikes": 2,
    "address": {
      "street": "8 Southwark St",
      "city": "London",
      "postalCode": "SE1 1TL",
      "country": "UK",
      "location": {
        "latitude": 51.5055,
        "longitude": -0.0918
      }
    },
    "comments": []
  },
  {
    "id": "13",
    "name": "Checkpoint Charlie",
    "category": "Museum",
    "likes": 21,
    "dislikes": 3,
    "address": {
      "street": "Friedrichstraße 43-45",
      "city": "Berlin",
      "postalCode": "10117",
      "country": "Germany",
      "location": {
        "latitude": 52.5075,
        "longitude": 13.3903
      }
    },
    "comments": []
  },
  {
    "id": "14",
    "name": "La Boqueria",
    "category": "Market",
    "likes": 24,
    "dislikes": 2,
    "address": {
      "street": "La Rambla, 91",
      "city": "Barcelona",
      "postalCode": "08001",
      "country": "Spain",
      "location": {
        "latitude": 41.3825,
        "longitude": 2.1725
      }
    },
    "comments": []
  },
  {
    "id": "15",
    "name": "Rijksmuseum",
    "category": "Museum",
    "likes": 37,
    "dislikes": 2,
    "address": {
      "street": "Museumstraat 1",
      "city": "Amsterdam",
      "postalCode": "1071 XX",
      "country": "Netherlands",
      "location": {
        "latitude": 52.3600,
        "longitude": 4.8852
      }
    },
    "comments": []
  },
  {
    "id": "16",
    "name": "Ferrari Museum",
    "category": "Attraction",
    "likes": 29,
    "dislikes": 1,
    "address": {
      "street": "Via Paolo Ferrari 85",
      "city": "Modena",
      "postalCode": "41121",
      "country": "Italy",
      "location": {
        "latitude": 44.6471,
        "longitude": 10.9252
      }
    },
    "comments": []
  },
  {
    "id": "17",
    "name": "Golden Gate Bridge",
    "category": "Landmark",
    "likes": 51,
    "dislikes": 2,
    "address": {
      "street": "Golden Gate Bridge",
      "city": "San Francisco",
      "postalCode": "CA 94129",
      "country": "USA",
      "location": {
        "latitude": 37.8199,
        "longitude": -122.4783
      }
    },
    "comments": []
  },
  {
    "id": "18",
    "name": "Table Mountain",
    "category": "Attraction",
    "likes": 42,
    "dislikes": 1,
    "address": {
      "street": "Tafelberg Rd",
      "city": "Cape Town",
      "postalCode": "8001",
      "country": "South Africa",
      "location": {
        "latitude": -33.9628,
        "longitude": 18.4098
      }
    },
    "comments": []
  },
  {
    "id": "19",
    "name": "Dubai Mall",
    "category": "Shopping",
    "likes": 33,
    "dislikes": 5,
    "address": {
      "street": "Financial Center Rd",
      "city": "Dubai",
      "postalCode": "00000",
      "country": "UAE",
      "location": {
        "latitude": 25.1985,
        "longitude": 55.2796
      }
    },
    "comments": []
  },
  {
    "id": "20",
    "name": "Mount Fuji",
    "category": "Nature",
    "likes": 47,
    "dislikes": 0,
    "address": {
      "street": "Mount Fuji",
      "city": "Honshu",
      "postalCode": "00000",
      "country": "Japan",
      "location": {
        "latitude": 35.3606,
        "longitude": 138.7274
      }
    },
    "comments": []
  }
]